{
  "nameState": "Montana",
  "lat": 46.8797,
  "long": -110.3626,
  "counties": [
    {
      "name": "Beaverhead",
      "lat": 45.2043,
      "long": -112.5811
    },
    {
      "name": "Big Horn",
      "lat": 45.4902,
      "long": -107.3129
    },
    {
      "name": "Blaine",
      "lat": 48.3243,
      "long": -108.4406
    },
    {
      "name": "Broadwater",
      "lat": 46.6305,
      "long": -112.3855
    },
    {
      "name": "Carbon",
      "lat": 45.36,
      "long": -108.4781
    },
    {
      "name": "Carter",
      "lat": 45.7843,
      "long": -105.3753
    },
    {
      "name": "Cascade",
      "lat": 47.3742,
      "long": -111.2887
    },
    {
      "name": "Chouteau",
      "lat": 47.8496,
      "long": -110.5926
    },
    {
      "name": "Custer",
      "lat": 46.2177,
      "long": -105.4263
    },
    {
      "name": "Daniels",
      "lat": 48.6585,
      "long": -105.2713
    },
    {
      "name": "Dawson",
      "lat": 47.4282,
      "long": -104.7151
    },
    {
      "name": "Deer Lodge",
      "lat": 46.384,
      "long": -112.7194
    },
    {
      "name": "Fallon",
      "lat": 46.2787,
      "long": -104.0651
    },
    {
      "name": "Fergus",
      "lat": 47.3497,
      "long": -109.6111
    },
    {
      "name": "Flathead",
      "lat": 48.2893,
      "long": -114.3544
    },
    {
      "name": "Gallatin",
      "lat": 45.496,
      "long": -111.032
    },
    {
      "name": "Garfield",
      "lat": 47.227,
      "long": -107.685
    },
    {
      "name": "Golden Valley",
      "lat": 46.4373,
      "long": -109.2003
    },
    {
      "name": "Granite",
      "lat": 46.392,
      "long": -113.2984
    },
    {
      "name": "Hill",
      "lat": 48.5375,
      "long": -109.6842
    },
    {
      "name": "Jefferson",
      "lat": 46.4809,
      "long": -112.1355
    },
    {
      "name": "Judith Basin",
      "lat": 46.626,
      "long": -110.6506
    },
    {
      "name": "Lake",
      "lat": 47.5235,
      "long": -114.0921
    },
    {
      "name": "Lewis and Clark",
      "lat": 46.5174,
      "long": -112.0126
    },
    {
      "name": "Liberty",
      "lat": 48.2664,
      "long": -110.4285
    },
    {
      "name": "Lincoln",
      "lat": 48.4007,
      "long": -114.0963
    },
    {
      "name": "Madison",
      "lat": 45.5454,
      "long": -111.9812
    },
    {
      "name": "McCone",
      "lat": 47.1887,
      "long": -105.2787
    },
    {
      "name": "Meagher",
      "lat": 46.5134,
      "long": -110.316
    },
    {
      "name": "Mineral",
      "lat": 46.1401,
      "long": -114.0057
    },
    {
      "name": "Missoula",
      "lat": 46.8787,
      "long": -113.009
    },
    {
      "name": "Musselshell",
      "lat": 46.5206,
      "long": -108.4329
    },
    {
      "name": "Park",
      "lat": 45.526,
      "long": -110.6024
    },
    {
      "name": "Petroleum",
      "lat": 46.575,
      "long": -108.5763
    },
    {
      "name": "Phillips",
      "lat": 48.3731,
      "long": -108.7875
    },
    {
      "name": "Pondera",
      "lat": 47.6343,
      "long": -112.5585
    },
    {
      "name": "Powder River",
      "lat": 45.4289,
      "long": -105.5987
    },
    {
      "name": "Powell",
      "lat": 45.7273,
      "long": -112.7557
    },
    {
      "name": "Ravalli",
      "lat": 46.451,
      "long": -114.1151
    },
    {
      "name": "Richland",
      "lat": 47.9262,
      "long": -104.3007
    },
    {
      "name": "Roosevelt",
      "lat": 48.327,
      "long": -104.8867
    },
    {
      "name": "Rosebud",
      "lat": 45.4547,
      "long": -106.7837
    },
    {
      "name": "Sanders",
      "lat": 47.3232,
      "long": -113.2379
    },
    {
      "name": "Sheridan",
      "lat": 48.0905,
      "long": -105.4877
    },
    {
      "name": "Silver Bow",
      "lat": 45.9923,
      "long": -112.5353
    },
    {
      "name": "Stillwater",
      "lat": 45.8072,
      "long": -108.5692
    },
    {
      "name": "Sweet Grass",
      "lat": 45.5614,
      "long": -109.487
    },
    {
      "name": "Teton",
      "lat": 47.833,
      "long": -112.3446
    },
    {
      "name": "Toole",
      "lat": 48.2761,
      "long": -112.5979
    },
    {
      "name": "Treasure",
      "lat": 45.4006,
      "long": -106.4611
    },
    {
      "name": "Valley",
      "lat": 48.4132,
      "long": -105.2656
    },
    {
      "name": "Wheatland",
      "lat": 46.6711,
      "long": -109.6479
    },
    {
      "name": "Yellowstone",
      "lat": 45.6769,
      "long": -108.5545
    }
  ]
}
