{
  "nameState": "Tennessee",
  "lat": 35.5175,
  "long": -86.5804,
  "counties": [
    {
      "name": "Anderson",
      "lat": 36.009,
      "long": -84.1477
    },
    {
      "name": "Bedford",
      "lat": 35.5179,
      "long": -86.4463
    },
    {
      "name": "Benton",
      "lat": 35.6461,
      "long": -88.207
    },
    {
      "name": "Bledsoe",
      "lat": 35.6115,
      "long": -85.2961
    },
    {
      "name": "Blount",
      "lat": 35.6717,
      "long": -83.976
    },
    {
      "name": "Bradley",
      "lat": 35.1872,
      "long": -84.8572
    },
    {
      "name": "Campbell",
      "lat": 36.4384,
      "long": -84.1482
    },
    {
      "name": "Cannon",
      "lat": 35.7663,
      "long": -86.0784
    },
    {
      "name": "Carroll",
      "lat": 35.564,
      "long": -88.4584
    },
    {
      "name": "Carter",
      "lat": 36.3472,
      "long": -82.1279
    },
    {
      "name": "Cheatham",
      "lat": 36.1482,
      "long": -86.984
    },
    {
      "name": "Chester",
      "lat": 35.4236,
      "long": -88.6589
    },
    {
      "name": "Claiborne",
      "lat": 36.423,
      "long": -83.6979
    },
    {
      "name": "Clay",
      "lat": 36.3417,
      "long": -85.9266
    },
    {
      "name": "Cocke",
      "lat": 35.9573,
      "long": -83.157
    },
    {
      "name": "Coffee",
      "lat": 35.4676,
      "long": -86.1336
    },
    {
      "name": "Davidson",
      "lat": 36.1627,
      "long": -86.7816
    },
    {
      "name": "Decatur",
      "lat": 35.5911,
      "long": -88.194
    },
    {
      "name": "DeKalb",
      "lat": 36.0459,
      "long": -85.785
    },
    {
      "name": "Dickson",
      "lat": 36.0853,
      "long": -87.384
    },
    {
      "name": "Dyer",
      "lat": 36.0533,
      "long": -88.3657
    },
    {
      "name": "Fayette",
      "lat": 35.1256,
      "long": -88.9141
    },
    {
      "name": "Fentress",
      "lat": 36.3017,
      "long": -84.9951
    },
    {
      "name": "Franklin",
      "lat": 35.1255,
      "long": -86.9005
    },
    {
      "name": "Gibson",
      "lat": 35.6373,
      "long": -88.8559
    },
    {
      "name": "Giles",
      "lat": 35.2514,
      "long": -87.0607
    },
    {
      "name": "Grainger",
      "lat": 36.1089,
      "long": -83.3867
    },
    {
      "name": "Greene",
      "lat": 36.1321,
      "long": -82.839
    },
    {
      "name": "Grundy",
      "lat": 35.2682,
      "long": -85.6509
    },
    {
      "name": "Hamblen",
      "lat": 36.2002,
      "long": -83.2972
    },
    {
      "name": "Hamilton",
      "lat": 35.1495,
      "long": -85.3097
    },
    {
      "name": "Hancock",
      "lat": 36.5956,
      "long": -83.1202
    },
    {
      "name": "Hardeman",
      "lat": 35.0359,
      "long": -88.5561
    },
    {
      "name": "Hardin",
      "lat": 35.2553,
      "long": -88.1714
    },
    {
      "name": "Hawkins",
      "lat": 36.5337,
      "long": -83.0151
    },
    {
      "name": "Haywood",
      "lat": 35.5871,
      "long": -88.5479
    },
    {
      "name": "Henderson",
      "lat": 35.5205,
      "long": -88.4134
    },
    {
      "name": "Henry",
      "lat": 36.1372,
      "long": -88.3197
    },
    {
      "name": "Hickman",
      "lat": 35.7474,
      "long": -87.3976
    },
    {
      "name": "Houston",
      "lat": 36.1274,
      "long": -87.6236
    },
    {
      "name": "Jackson",
      "lat": 36.1519,
      "long": -85.9432
    },
    {
      "name": "Jefferson",
      "lat": 36.0391,
      "long": -83.331
    },
    {
      "name": "Johnson",
      "lat": 36.3035,
      "long": -81.9271
    },
    {
      "name": "Knox",
      "lat": 35.9606,
      "long": -83.9207
    },
    {
      "name": "Lake",
      "lat": 36.1024,
      "long": -88.2702
    },
    {
      "name": "Lauderdale",
      "lat": 35.7677,
      "long": -88.8387
    },
    {
      "name": "Lawrence",
      "lat": 35.2491,
      "long": -87.1847
    },
    {
      "name": "Lewis",
      "lat": 35.2554,
      "long": -87.4071
    },
    {
      "name": "Lincoln",
      "lat": 35.1627,
      "long": -86.87
    },
    {
      "name": "Loudon",
      "lat": 35.749,
      "long": -84.3532
    },
    {
      "name": "McMinn",
      "lat": 35.4765,
      "long": -84.577
    },
    {
      "name": "McNairy",
      "lat": 35.1486,
      "long": -88.4757
    },
    {
      "name": "Macon",
      "lat": 36.5061,
      "long": -85.9855
    },
    {
      "name": "Madison",
      "lat": 35.6143,
      "long": -88.838
    },
    {
      "name": "Marion",
      "lat": 35.2151,
      "long": -85.4474
    },
    {
      "name": "Marshall",
      "lat": 35.4597,
      "long": -86.661
    },
    {
      "name": "Maury",
      "lat": 35.614,
      "long": -87.1832
    },
    {
      "name": "Meigs",
      "lat": 35.4904,
      "long": -84.7465
    },
    {
      "name": "Monroe",
      "lat": 35.5563,
      "long": -84.2605
    },
    {
      "name": "Montgomery",
      "lat": 36.5298,
      "long": -87.6027
    },
    {
      "name": "Moore",
      "lat": 35.2463,
      "long": -86.6135
    }
  ]
}
