{
  "nameState": "California",
  "lat": 36.7783,
  "long": -119.4179,
  "counties": [
    {
      "name": "Alameda",
      "lat": 37.6013,
      "long": -122.2711
    },
    {
      "name": "Alpine",
      "lat": 32.8343,
      "long": -116.482
    },
    {
      "name": "Amador",
      "lat": 38.4345,
      "long": -120.5595
    },
    {
      "name": "Butte",
      "lat": 39.4738,
      "long": -121.8079
    },
    {
      "name": "Calaveras",
      "lat": 38.2544,
      "long": -120.5629
    },
    {
      "name": "Colusa",
      "lat": 39.1344,
      "long": -122.0381
    },
    {
      "name": "Contra Costa",
      "lat": 38.0049,
      "long": -122.0296
    },
    {
      "name": "Del Norte",
      "lat": 41.1355,
      "long": -123.916
    },
    {
      "name": "El Dorado",
      "lat": 38.7426,
      "long": -120.4358
    },
    {
      "name": "Fresno",
      "lat": 36.7468,
      "long": -119.7726
    },
    {
      "name": "Glenn",
      "lat": 39.7398,
      "long": -122.1545
    },
    {
      "name": "Humboldt",
      "lat": 40.7455,
      "long": -123.8695
    },
    {
      "name": "Imperial",
      "lat": 32.792,
      "long": -115.4989
    },
    {
      "name": "Inyo",
      "lat": 36.5773,
      "long": -118.1517
    },
    {
      "name": "Kern",
      "lat": 35.4937,
      "long": -118.8597
    },
    {
      "name": "Kings",
      "lat": 36.0985,
      "long": -119.8815
    },
    {
      "name": "Lake",
      "lat": 38.9769,
      "long": -122.6984
    },
    {
      "name": "Lassen",
      "lat": 40.4133,
      "long": -121.5034
    },
    {
      "name": "Los Angeles",
      "lat": 34.0522,
      "long": -118.2437
    },
    {
      "name": "Madera",
      "lat": 36.9861,
      "long": -119.697
    },
    {
      "name": "Marin",
      "lat": 38.0293,
      "long": -122.5411
    },
    {
      "name": "Mariposa",
      "lat": 37.4875,
      "long": -119.9663
    },
    {
      "name": "Mendocino",
      "lat": 39.55,
      "long": -123.4384
    },
    {
      "name": "Merced",
      "lat": 37.3022,
      "long": -120.482
    },
    {
      "name": "Modoc",
      "lat": 41.436,
      "long": -120.5358
    },
    {
      "name": "Mono",
      "lat": 37.9267,
      "long": -118.9522
    },
    {
      "name": "Monterey",
      "lat": 36.5761,
      "long": -121.8933
    },
    {
      "name": "Napa",
      "lat": 38.2975,
      "long": -122.2869
    },
    {
      "name": "Nevada",
      "lat": 39.1349,
      "long": -121.006
    },
    {
      "name": "Orange",
      "lat": 33.7175,
      "long": -117.8311
    },
    {
      "name": "Placer",
      "lat": 39.0917,
      "long": -120.804
    },
    {
      "name": "Plumas",
      "lat": 39.8069,
      "long": -120.8476
    },
    {
      "name": "Riverside",
      "lat": 33.9533,
      "long": -117.3962
    },
    {
      "name": "Sacramento",
      "lat": 38.5816,
      "long": -121.4944
    },
    {
      "name": "San Benito",
      "lat": 36.5761,
      "long": -121.0426
    },
    {
      "name": "San Bernardino",
      "lat": 34.9592,
      "long": -116.4194
    },
    {
      "name": "San Diego",
      "lat": 32.7157,
      "long": -117.1611
    },
    {
      "name": "San Francisco",
      "lat": 37.7749,
      "long": -122.4194
    },
    {
      "name": "San Joaquin",
      "lat": 37.9483,
      "long": -121.2901
    },
    {
      "name": "San Luis Obispo",
      "lat": 35.3733,
      "long": -120.7625
    },
    {
      "name": "San Mateo",
      "lat": 37.563,
      "long": -122.3255
    },
    {
      "name": "Santa Barbara",
      "lat": 34.4208,
      "long": -119.6982
    },
    {
      "name": "Santa Clara",
      "lat": 37.7749,
      "long": -122.4194
    },
    {
      "name": "Santa Cruz",
      "lat": 36.9741,
      "long": -122.0308
    },
    {
      "name": "Shasta",
      "lat": 40.7907,
      "long": -122.4392
    },
    {
      "name": "Sierra",
      "lat": 39.3313,
      "long": -119.6594
    },
    {
      "name": "Siskiyou",
      "lat": 41.4099,
      "long": -122.4988
    },
    {
      "name": "Solano",
      "lat": 38.3104,
      "long": -122.0296
    },
    {
      "name": "Sonoma",
      "lat": 38.2975,
      "long": -122.2869
    },
    {
      "name": "Stanislaus",
      "lat": 37.5092,
      "long": -120.9876
    },
    {
      "name": "Sutter",
      "lat": 39.1404,
      "long": -121.6359
    },
    {
      "name": "Tehama",
      "lat": 40.0982,
      "long": -122.5247
    },
    {
      "name": "Trinity",
      "lat": 40.3843,
      "long": -123.0689
    },
    {
      "name": "Tulare",
      "lat": 36.14,
      "long": -118.8173
    },
    {
      "name": "Tuolumne",
      "lat": 37.9852,
      "long": -120.2306
    },
    {
      "name": "Ventura",
      "lat": 34.277,
      "long": -119.2915
    },
    {
      "name": "Yolo",
      "lat": 38.5883,
      "long": -121.701
    },
    {
      "name": "Yuba",
      "lat": 39.1404,
      "long": -121.6359
    }
  ]
}
